{
  "nodes": [
    {
      "id": 0,
      "name": "Метро «Библиотека имени Ленина»",
      "lat": 55.7521809,
      "lon": 37.610303625
    },
    {
      "id": 1,
      "name": "Большой Каменный мост",
      "lat": 55.747409700000006,
      "lon": 37.61173105
    },
    {
      "id": 2,
      "name": "Боровицкая площадь",
      "lat": 55.7485997,
      "lon": 37.6100432
    },
    {
      "id": 3,
      "name": "Красная площадь",
      "lat": 55.7518508,
      "lon": 37.62509355
    },
    {
      "id": 4,
      "name": "Манежная площадь",
      "lat": 55.7551196,
      "lon": 37.6125455
    },
    {
      "id": 5,
      "name": "Моховая улица",
      "lat": 55.7547894,
      "lon": 37.6113307
    },
    {
      "id": 6,
      "name": "Зарядье",
      "lat": 55.749846399999996,
      "lon": 37.62632375
    }
  ],
  "edges": [
    {
      "from": 0,
      "to": 5,
      "time": 2.8,
      "time_min": 2.0,
      "time_max": 4.2,
      "cost": 50,
      "comfort": 8
    },
    {
      "from": 0,
      "to": 2,
      "time": 4.8,
      "time_min": 3.4,
      "time_max": 7.2,
      "cost": 50,
      "comfort": 8
    },
    {
      "from": 0,
      "to": 4,
      "time": 3.2,
      "time_min": 2.2,
      "time_max": 4.8,
      "cost": 50,
      "comfort": 8
    },
    {
      "from": 0,
      "to": 1,
      "time": 6.6,
      "time_min": 4.6,
      "time_max": 9.9,
      "cost": 50,
      "comfort": 8
    },
    {
      "from": 1,
      "to": 2,
      "time": 1.3,
      "time_min": 0.9,
      "time_max": 2.0,
      "cost": 50,
      "comfort": 8
    },
    {
      "from": 3,
      "to": 6,
      "time": 2.9,
      "time_min": 2.0,
      "time_max": 4.3,
      "cost": 50,
      "comfort": 8
    },
    {
      "from": 4,
      "to": 5,
      "time": 1.8,
      "time_min": 1.3,
      "time_max": 2.7,
      "cost": 50,
      "comfort": 8
    },
    {
      "from": 5,
      "to": 0,
      "time": 2.8,
      "time_min": 2.0,
      "time_max": 4.2,
      "cost": 50,
      "comfort": 8
    },
    {
      "from": 2,
      "to": 0,
      "time": 4.8,
      "time_min": 3.4,
      "time_max": 7.2,
      "cost": 50,
      "comfort": 8
    },
    {
      "from": 4,
      "to": 0,
      "time": 3.2,
      "time_min": 2.2,
      "time_max": 4.8,
      "cost": 50,
      "comfort": 8
    },
    {
      "from": 1,
      "to": 0,
      "time": 6.6,
      "time_min": 4.6,
      "time_max": 9.9,
      "cost": 50,
      "comfort": 8
    },
    {
      "from": 2,
      "to": 1,
      "time": 1.3,
      "time_min": 0.9,
      "time_max": 2.0,
      "cost": 50,
      "comfort": 8
    },
    {
      "from": 6,
      "to": 3,
      "time": 2.9,
      "time_min": 2.0,
      "time_max": 4.3,
      "cost": 50,
      "comfort": 8
    },
    {
      "from": 5,
      "to": 4,
      "time": 1.8,
      "time_min": 1.3,
      "time_max": 2.7,
      "cost": 50,
      "comfort": 8
    }
  ]
}